{
  "restaurants": [
    {
      "id": 1,
      "name": "Mesopotamia Oradea – Prima Shop",
      "city": "Oradea",
      "county": "Bihor",
      "address": "Str. Bulevardul Decebal 61A, 410219 Oradea",
      "phone": "0259 412 345",
      "email": "oradea@mesopotamia.ro",
      "lat": 47.05878,
      "lng": 21.91608,
      "hours": "Lun–Vin 10:00–22:00 | Sâm–Dum 11:00–23:00",
      "image": "images/restaurante/oradea-prima-shop_800x300.jpg",
      "features": { "mesoCafe": true, "mesoKids": false },
      "delivery": { "glovo": true, "boltFood": true, "wolt": true }
    },
    {
      "id": 2,
      "name": "Mesopotamia Oradea – Lotus Center",
      "city": "Oradea",
      "county": "Bihor",
      "address": "Str. Nufărului 30, 410583 Oradea",
      "phone": "0259 418 900",
      "email": "oradea@mesopotamia.ro",
      "lat": 47.03610478614698,
      "lng": 21.94875255124961,
      "hours": "Lun–Dum 10:00–22:00",
      "image": "images/restaurante/oradea-lotus-center_800x300.jpg",
      "features": { "mesoCafe": true, "mesoKids": true },
      "delivery": { "glovo": true, "boltFood": false, "wolt": false }
    },
    {
      "id": 3,
      "name": "Mesopotamia Cluj – Mărăști",
      "city": "Cluj-Napoca",
      "county": "Cluj",
      "address": "Calea Dorobanților nr. 14-16, Cluj-Napoca",
      "phone": "0264 591 200",
      "email": "cluj@mesopotamia.ro",
      "lat": 46.7712,
      "lng": 23.5886,
      "hours": "Lun–Vin 10:00–22:00 | Sâm–Dum 11:00–23:00",
      "features": { "mesoCafe": true, "mesoKids": true },
      "delivery": { "glovo": true, "boltFood": true, "wolt": true }
    },
    {
      "id": 4,
      "name": "Mesopotamia Cluj – Polus Center",
      "city": "Cluj-Napoca",
      "county": "Cluj",
      "address": "Str. Aurel Vlaicu nr. 158, Cluj-Napoca",
      "phone": "0264 415 050",
      "email": "cluj@mesopotamia.ro",
      "lat": 46.7489,
      "lng": 23.6012,
      "hours": "Lun–Dum 10:00–22:00",
      "features": { "mesoCafe": false, "mesoKids": false },
      "delivery": { "glovo": true, "boltFood": true, "wolt": true }
    },
    {
      "id": 5,
      "name": "Mesopotamia Timișoara – Iulius Mall",
      "city": "Timișoara",
      "county": "Timiș",
      "address": "Str. Aristide Demetriade nr. 1, Timișoara",
      "phone": "0256 307 900",
      "email": "timisoara@mesopotamia.ro",
      "lat": 45.7489,
      "lng": 21.2087,
      "hours": "Lun–Dum 10:00–22:00",
      "features": { "mesoCafe": true, "mesoKids": false },
      "delivery": { "glovo": true, "boltFood": true, "wolt": true }
    },
    {
      "id": 6,
      "name": "Mesopotamia Timișoara – Ștrand",
      "city": "Timișoara",
      "county": "Timiș",
      "address": "Bd. Take Ionescu nr. 56, Timișoara",
      "phone": "0256 201 111",
      "email": "timisoara@mesopotamia.ro",
      "lat": 45.7521,
      "lng": 21.2401,
      "hours": "Lun–Vin 10:00–11:00 | Sâm–Dum 10:00–23:00",
      "features": { "mesoCafe": true, "mesoKids": true },
      "delivery": { "glovo": true, "boltFood": true, "wolt": false }
    },
    {
      "id": 7,
      "name": "Mesopotamia București – Mega Mall",
      "city": "București",
      "county": "Ilfov",
      "address": "Bd. Pierre de Coubertin nr. 3-5, București",
      "phone": "021 306 0200",
      "email": "bucuresti@mesopotamia.ro",
      "lat": 44.4268,
      "lng": 26.1485,
      "hours": "Lun–Dum 10:00–22:00",
      "features": { "mesoCafe": true, "mesoKids": true },
      "delivery": { "glovo": true, "boltFood": true, "wolt": true }
    },
    {
      "id": 8,
      "name": "Mesopotamia București – AFI Cotroceni",
      "city": "București",
      "county": "Ilfov",
      "address": "Bd. Vasile Milea nr. 4, București",
      "phone": "021 406 8800",
      "email": "bucuresti@mesopotamia.ro",
      "lat": 44.4301,
      "lng": 26.0548,
      "hours": "Lun–Dum 10:00–22:00",
      "features": { "mesoCafe": true, "mesoKids": false },
      "delivery": { "glovo": true, "boltFood": true, "wolt": true }
    },
    {
      "id": 9,
      "name": "Mesopotamia Brașov – Coresi Mall",
      "city": "Brașov",
      "county": "Brașov",
      "address": "Calea Feldioarei nr. 14, Brașov",
      "phone": "0268 418 555",
      "email": "brasov@mesopotamia.ro",
      "lat": 45.6312,
      "lng": 25.6124,
      "hours": "Lun–Dum 10:00–22:00",
      "features": { "mesoCafe": true, "mesoKids": true },
      "delivery": { "glovo": true, "boltFood": true, "wolt": false }
    },
    {
      "id": 10,
      "name": "Mesopotamia Brașov – Centru",
      "city": "Brașov",
      "county": "Brașov",
      "address": "Str. Mureșenilor nr. 22, Brașov",
      "phone": "0268 474 100",
      "email": "brasov@mesopotamia.ro",
      "lat": 45.6417,
      "lng": 25.5899,
      "hours": "Lun–Vin 10:00–22:00 | Sâm–Dum 10:00–23:00",
      "features": { "mesoCafe": false, "mesoKids": false },
      "delivery": { "glovo": false, "boltFood": true, "wolt": false }
    },
    {
      "id": 11,
      "name": "Mesopotamia Iași – Palas Mall",
      "city": "Iași",
      "county": "Iași",
      "address": "Str. Palas nr. 7A, Iași",
      "phone": "0332 800 700",
      "email": "iasi@mesopotamia.ro",
      "lat": 47.1589,
      "lng": 27.5874,
      "hours": "Lun–Dum 10:00–22:00",
      "features": { "mesoCafe": true, "mesoKids": true },
      "delivery": { "glovo": true, "boltFood": true, "wolt": true }
    },
    {
      "id": 12,
      "name": "Mesopotamia Iași – Copou",
      "city": "Iași",
      "county": "Iași",
      "address": "Bd. Carol I nr. 11, Iași",
      "phone": "0332 408 500",
      "email": "iasi@mesopotamia.ro",
      "lat": 47.1712,
      "lng": 27.5700,
      "hours": "Lun–Vin 10:00–21:00 | Sâm–Dum 11:00–22:00",
      "features": { "mesoCafe": false, "mesoKids": false },
      "delivery": { "glovo": true, "boltFood": false, "wolt": false }
    },
    {
      "id": 13,
      "name": "Mesopotamia Sibiu – Promenada",
      "city": "Sibiu",
      "county": "Sibiu",
      "address": "Str. Ștefan cel Mare nr. 1, Sibiu",
      "phone": "0269 225 100",
      "email": "sibiu@mesopotamia.ro",
      "lat": 45.7983,
      "lng": 24.1256,
      "hours": "Lun–Dum 10:00–22:00",
      "features": { "mesoCafe": true, "mesoKids": false },
      "delivery": { "glovo": true, "boltFood": true, "wolt": false }
    },
    {
      "id": 14,
      "name": "Mesopotamia Arad – Atrium Center",
      "city": "Arad",
      "county": "Arad",
      "address": "Str. Caius Iacob nr. 1, Arad",
      "phone": "0257 281 900",
      "email": "arad@mesopotamia.ro",
      "lat": 46.1866,
      "lng": 21.3123,
      "hours": "Lun–Dum 10:00–22:00",
      "features": { "mesoCafe": true, "mesoKids": true },
      "delivery": { "glovo": true, "boltFood": false, "wolt": false }
    },
    {
      "id": 15,
      "name": "Mesopotamia Constanța – City Park",
      "city": "Constanța",
      "county": "Constanța",
      "address": "Bd. Tomis nr. 391, Constanța",
      "phone": "0241 541 200",
      "email": "constanta@mesopotamia.ro",
      "lat": 44.1598,
      "lng": 28.6348,
      "hours": "Lun–Dum 10:00–22:00",
      "features": { "mesoCafe": true, "mesoKids": false },
      "delivery": { "glovo": true, "boltFood": true, "wolt": false }
    },
    {
      "id": 16,
      "name": "Mesopotamia Oradea – Vasile Alecsandri",
      "city": "Oradea",
      "county": "Bihor",
      "address": "Str. Vasile Alecsandri 4, 410072 Oradea",
      "phone": "0259 418 900",
      "email": "oradea@mesopotamia.ro",
      "lat": 47.05441,
      "lng": 21.92957,
      "hours": "Lun–Dum 10:00–22:00",
      "image": "images/restaurante/oradea-vasile-alecsandri_800x300.jpg",
      "features": { "mesoCafe": true, "mesoKids": false },
      "delivery": { "glovo": true, "boltFood": true, "wolt": true }
    }
  ]
}
